frame,timestamp_iso,time_hms,raw_ax_g,raw_ay_g,raw_az_g,raw_gx_dps,raw_gy_dps,raw_gz_dps,raw_roll_deg,raw_pitch_deg,raw_yaw_deg,accel_lat_g,accel_lon_g,accel_vert_g,gyro_x_dps,gyro_y_dps,gyro_z_dps,pitch_deg,roll_deg,yaw_deg,mag_x,mag_y,mag_z,temp_c
0,2026-03-06T17:11:34.350000,17:11:34.350,-3.25869,5.95752,-9.94355,-15.4419,-32.7148,61.7065,165.6,-3.0,91.3,-3.25869,-5.95752,9.94355,-15.4419,32.7148,61.7065,-345.6,-3.0,91.3,8353,539,2355,29.41
1,2026-03-06T17:11:34.450000,17:11:34.450,0.84219,3.73721,-8.81904,-10.6201,-0.1831,-1.709,155.6,-3.7,92.4,0.84219,-3.73721,8.81904,-10.6201,0.1831,-1.709,-335.6,-3.7,92.4,8301,229,2030,29.29
2,2026-03-06T17:11:34.551000,17:11:34.551,0.67471,3.71328,-9.27842,-2.8076,-1.1597,-0.6104,156.9,-3.9,92.6,0.67471,-3.71328,9.27842,-2.8076,1.1597,-0.6104,-336.9,-3.9,92.6,8178,196,1987,29.29
3,2026-03-06T17:11:34.650000,17:11:34.650,1.00967,3.56016,-9.07744,0.1831,3.2349,0.8545,156.9,-3.9,92.8,1.00967,-3.56016,9.07744,0.1831,-3.2349,0.8545,-336.9,-3.9,92.8,8029,267,1996,29.41
4,2026-03-06T17:11:34.750000,17:11:34.750,0.72734,3.82334,-8.88604,-1.2207,0.4272,0.7935,156.8,-4.0,93.1,0.72734,-3.82334,8.88604,-1.2207,-0.4272,0.7935,-336.8,-4.0,93.1,7866,363,1935,29.35
5,2026-03-06T17:11:34.850000,17:11:34.850,0.72734,3.98604,-9.38369,-1.2817,-1.0376,-0.061,156.8,-4.1,93.3,0.72734,-3.98604,9.38369,-1.2817,1.0376,-0.061,-336.8,-4.1,93.3,7748,472,1936,29.35
6,2026-03-06T17:11:34.949000,17:11:34.949,0.77041,4.50283,-9.09658,-1.3428,0.061,-0.1831,156.7,-4.1,93.6,0.77041,-4.50283,9.09658,-1.3428,-0.061,-0.1831,-336.7,-4.1,93.6,7695,627,1941,29.29
7,2026-03-06T17:11:35.049000,17:11:35.049,1.11494,4.1583,-8.72334,-1.2817,1.0376,-0.3052,156.5,-4.2,94.1,1.11494,-4.1583,8.72334,-1.2817,-1.0376,-0.3052,-336.5,-4.2,94.1,7743,742,1985,29.35
8,2026-03-06T17:11:35.149000,17:11:35.149,2.80889,6.07236,-6.69922,1.709,79.6509,-12.0239,156.3,-5.5,95.0,2.80889,-6.07236,6.69922,1.709,-79.6509,-12.0239,-336.3,-5.5,95.0,7895,774,2109,29.47
9,2026-03-06T17:11:35.248000,17:11:35.248,0.72256,4.40713,-8.575,53.0396,-8.8501,-1.5259,158.6,-5.3,95.3,0.72256,-4.40713,8.575,53.0396,8.8501,-1.5259,-338.6,-5.3,95.3,8070,759,2432,29.41
10,2026-03-06T17:11:35.349000,17:11:35.349,1.41162,2.60313,-8.64678,22.2168,6.3477,11.9629,164.1,-4.4,93.8,1.41162,-2.60313,8.64678,22.2168,-6.3477,11.9629,-344.1,-4.4,93.8,8295,718,2501,29.41
11,2026-03-06T17:11:35.448000,17:11:35.448,0.65557,3.16299,-9.57988,24.4141,-13.5498,2.1362,164.6,-4.6,94.5,0.65557,-3.16299,9.57988,24.4141,13.5498,2.1362,-344.6,-4.6,94.5,8445,594,2587,29.29
12,2026-03-06T17:11:35.548000,17:11:35.548,0.44502,4.04824,-8.39795,-4.0894,-5.0049,3.3569,169.9,-2.8,93.6,0.44502,-4.04824,8.39795,-4.0894,5.0049,3.3569,-349.9,-2.8,93.6,8560,564,2481,29.35
13,2026-03-06T17:11:35.648000,17:11:35.648,0.91875,1.22021,-9.34541,31.6772,15.4419,-3.2959,170.8,-3.9,94.4,0.91875,-1.22021,9.34541,31.6772,-15.4419,-3.2959,-350.8,-3.9,94.4,8540,572,2665,29.35
14,2026-03-06T17:11:35.748000,17:11:35.748,0.45459,1.22021,-9.65166,-18.3716,8.728,18.6157,173.1,-4.2,95.2,0.45459,-1.22021,9.65166,-18.3716,-8.728,18.6157,-353.1,-4.2,95.2,8481,717,2973,29.29
15,2026-03-06T17:11:35.848000,17:11:35.848,0.72734,1.69395,-9.57988,0.0,-2.5635,-1.2817,171.9,-4.4,94.4,0.72734,-1.69395,9.57988,0.0,2.5635,-1.2817,-351.9,-4.4,94.4,8452,450,3150,29.47
16,2026-03-06T17:11:35.947000,17:11:35.947,1.29199,1.55518,-9.72344,0.3662,-0.9766,1.8311,171.8,-4.4,94.4,1.29199,-1.55518,9.72344,0.3662,0.9766,1.8311,-351.8,-4.4,94.4,8500,252,3094,29.35
17,2026-03-06T17:11:36.047000,17:11:36.047,1.0623,1.68438,-9.48896,0.5493,-0.8545,0.9766,171.8,-4.3,94.2,1.0623,-1.68438,9.48896,0.5493,0.8545,0.9766,-351.8,-4.3,94.2,8576,176,2967,29.35
18,2026-03-06T17:11:36.147000,17:11:36.147,0.42109,2.33516,-9.42197,-0.7935,0.061,0.4883,171.6,-4.3,94.2,0.42109,-2.33516,9.42197,-0.7935,-0.061,0.4883,-351.6,-4.3,94.2,8632,133,2864,29.29
19,2026-03-06T17:11:36.247000,17:11:36.247,0.66514,1.88535,-9.39326,-0.1831,0.8545,0.9766,171.4,-4.4,94.1,0.66514,-1.88535,9.39326,-0.1831,-0.8545,0.9766,-351.4,-4.4,94.1,8646,143,2718,29.35
20,2026-03-06T17:11:36.347000,17:11:36.347,1.00488,1.91885,-9.81914,0.1221,-2.2583,0.7324,171.3,-4.3,94.1,1.00488,-1.91885,9.81914,0.1221,2.2583,0.7324,-351.3,-4.3,94.1,8601,213,2896,29.29
21,2026-03-06T17:11:36.446000,17:11:36.446,0.62207,2.29688,-9.56553,-0.6104,0.8545,0.4883,171.1,-4.4,94.0,0.62207,-2.29688,9.56553,-0.6104,-0.8545,0.4883,-351.1,-4.4,94.0,8627,186,2773,29.41
22,2026-03-06T17:11:36.546000,17:11:36.546,1.28721,2.29209,-9.12051,-0.9155,-0.7324,0.6714,170.9,-4.5,94.0,1.28721,-2.29209,9.12051,-0.9155,0.7324,0.6714,-350.9,-4.5,94.0,8633,145,2733,29.41
23,2026-03-06T17:11:36.646000,17:11:36.646,1.33027,1.95713,-9.39805,-1.5259,-1.2207,0.6104,170.5,-4.5,94.0,1.33027,-1.95713,9.39805,-1.5259,1.2207,0.6104,-350.5,-4.5,94.0,8637,121,2659,29.47
24,2026-03-06T17:11:36.746000,17:11:36.746,1.0623,1.84707,-9.61338,-1.4648,-0.4883,-0.1831,170.2,-4.5,94.0,1.0623,-1.84707,9.61338,-1.4648,0.4883,-0.1831,-350.2,-4.5,94.0,8568,152,2574,29.41
25,2026-03-06T17:11:36.846000,17:11:36.846,0.95703,2.41172,-9.55596,-1.0376,-0.3662,0.3052,169.9,-4.5,94.0,0.95703,-2.41172,9.55596,-1.0376,0.3662,0.3052,-349.9,-4.5,94.0,8454,169,2546,29.47
26,2026-03-06T17:11:36.946000,17:11:36.946,0.9666,2.11025,-9.58467,-1.5259,-0.7324,0.8545,169.6,-4.5,94.0,0.9666,-2.11025,9.58467,-1.5259,0.7324,0.8545,-349.6,-4.5,94.0,8257,199,2503,29.41
27,2026-03-06T17:11:37.045000,17:11:37.045,0.77998,1.66523,-9.61338,-0.4883,0.9155,0.7935,169.4,-4.6,94.0,0.77998,-1.66523,9.61338,-0.4883,-0.9155,0.7935,-349.4,-4.6,94.0,8061,307,2463,29.35
28,2026-03-06T17:11:37.145000,17:11:37.145,1.07666,1.57432,-9.6373,-0.7324,0.4272,0.6714,169.3,-4.7,94.1,1.07666,-1.57432,9.6373,-0.7324,-0.4272,0.6714,-349.3,-4.7,94.1,7891,494,2540,29.35
29,2026-03-06T17:11:37.245000,17:11:37.245,0.47373,2.08633,-9.81436,-2.1362,-0.7935,1.77,169.1,-4.6,94.1,0.47373,-2.08633,9.81436,-2.1362,0.7935,1.77,-349.1,-4.6,94.1,7916,622,2540,29.35
30,2026-03-06T17:11:37.345000,17:11:37.345,0.55508,2.16768,-9.55117,-1.709,-1.4648,2.5024,169.0,-4.5,94.1,0.55508,-2.16768,9.55117,-1.709,1.4648,2.5024,-349.0,-4.5,94.1,8038,764,2610,29.35
31,2026-03-06T17:11:37.445000,17:11:37.445,0.53115,1.77529,-9.6708,-1.4038,0.9766,3.9062,168.8,-4.4,94.1,0.53115,-1.77529,9.6708,-1.4038,-0.9766,3.9062,-348.8,-4.4,94.1,8189,854,2707,29.54
32,2026-03-06T17:11:37.544000,17:11:37.544,-0.06699,1.85186,-9.8957,-2.2583,-1.3428,6.1035,168.7,-4.4,93.9,-0.06699,-1.85186,9.8957,-2.2583,1.3428,6.1035,-348.7,-4.4,93.9,8328,920,2762,29.35
33,2026-03-06T17:11:37.644000,17:11:37.644,-0.01914,1.72744,-9.46982,-1.6479,-2.1973,9.0332,168.6,-4.1,93.5,-0.01914,-1.72744,9.46982,-1.6479,2.1973,9.0332,-348.6,-4.1,93.5,8408,997,2871,29.41
34,2026-03-06T17:11:37.744000,17:11:37.744,-0.46895,1.87578,-9.53682,-1.8921,-5.0659,10.6201,168.5,-3.7,92.9,-0.46895,-1.87578,9.53682,-1.8921,5.0659,10.6201,-348.5,-3.7,92.9,8462,1148,3062,29.35
35,2026-03-06T17:11:37.844000,17:11:37.844,-0.75127,1.49297,-9.78086,-1.3428,-4.5166,13.3057,168.5,-3.2,92.2,-0.75127,-1.49297,9.78086,-1.3428,4.5166,13.3057,-348.5,-3.2,92.2,8526,1225,3422,29.54
36,2026-03-06T17:11:37.944000,17:11:37.944,-0.75127,1.52168,-9.74736,-1.0376,-2.3193,16.7236,168.6,-2.7,91.2,-0.75127,-1.52168,9.74736,-1.0376,2.3193,16.7236,-348.6,-2.7,91.2,8504,1228,4032,29.6
37,2026-03-06T17:11:38.044000,17:11:38.044,-0.85654,0.99053,-10.08711,-1.0986,-3.54,17.5171,168.6,-2.4,90.0,-0.85654,-0.99053,10.08711,-1.0986,3.54,17.5171,-348.6,-2.4,90.0,8352,1043,4473,29.47
38,2026-03-06T17:11:38.143000,17:11:38.143,-0.94268,0.8374,-9.70908,-0.7324,-4.8218,19.4092,168.8,-1.9,88.8,-0.94268,-0.8374,9.70908,-0.7324,4.8218,19.4092,-348.8,-1.9,88.8,7961,793,4604,29.35
39,2026-03-06T17:11:38.243000,17:11:38.243,-0.82305,1.21543,-9.93398,-2.3804,-4.0283,22.2168,169.0,-1.5,87.3,-0.82305,-1.21543,9.93398,-2.3804,4.0283,22.2168,-349.0,-1.5,87.3,7356,637,4606,29.47
40,2026-03-06T17:11:38.343000,17:11:38.343,-0.6125,1.3207,-9.73779,-2.5635,-3.1738,23.5596,169.0,-1.2,85.8,-0.6125,-1.3207,9.73779,-2.5635,3.1738,23.5596,-349.0,-1.2,85.8,6602,545,4383,29.41
41,2026-03-06T17:11:38.443000,17:11:38.443,-0.33496,1.36855,-9.5751,-2.1973,-3.54,24.231,169.0,-1.0,84.3,-0.33496,-1.36855,9.5751,-2.1973,3.54,24.231,-349.0,-1.0,84.3,5842,646,4201,29.35
42,2026-03-06T17:11:38.545000,17:11:38.545,-0.06699,1.26807,-9.76172,-2.8687,-6.1646,24.8413,168.9,-0.8,83.0,-0.06699,-1.26807,9.76172,-2.8687,6.1646,24.8413,-348.9,-0.8,83.0,5181,886,4260,29.47
43,2026-03-06T17:11:38.643000,17:11:38.643,-0.71777,1.28721,-10.02969,-3.2959,-5.9814,26.1841,168.8,-0.5,82.0,-0.71777,-1.28721,10.02969,-3.2959,5.9814,26.1841,-348.8,-0.5,82.0,4611,1195,4761,29.41
44,2026-03-06T17:11:38.743000,17:11:38.743,-0.55508,1.22979,-9.82871,-3.54,-6.1646,26.9165,168.6,-0.1,81.3,-0.55508,-1.22979,9.82871,-3.54,6.1646,26.9165,-348.6,-0.1,81.3,4415,1669,4834,29.47
45,2026-03-06T17:11:38.843000,17:11:38.843,-0.73691,1.28721,-9.81436,-2.8076,-4.1504,28.5034,168.5,0.0,80.9,-0.73691,-1.28721,9.81436,-2.8076,4.1504,28.5034,-348.5,0.0,80.9,4245,1981,5147,29.35
46,2026-03-06T17:11:38.942000,17:11:38.942,-0.66035,2.0002,-9.73779,-2.0142,-5.7373,29.2358,168.3,0.2,80.7,-0.66035,-2.0002,9.73779,-2.0142,5.7373,29.2358,-348.3,0.2,80.7,3982,2267,5622,29.35
47,2026-03-06T17:11:39.042000,17:11:39.042,-0.33975,2.39736,-9.96748,-2.0752,-5.4932,29.3579,168.1,0.4,80.7,-0.33975,-2.39736,9.96748,-2.0752,5.4932,29.3579,-348.1,0.4,80.7,3704,2434,6339,29.47
48,2026-03-06T17:11:39.142000,17:11:39.142,-0.43545,1.7418,-9.36455,-1.6479,-6.958,29.2969,167.8,0.6,80.9,-0.43545,-1.7418,9.36455,-1.6479,6.958,29.2969,-347.8,0.6,80.9,3621,2087,7153,29.47
49,2026-03-06T17:11:39.242000,17:11:39.242,-0.8374,1.4834,-9.72822,-1.9531,-7.5684,28.7476,167.7,0.8,80.8,-0.8374,-1.4834,9.72822,-1.9531,7.5684,28.7476,-347.7,0.8,80.8,3906,1210,7792,29.47
50,2026-03-06T17:11:39.341000,17:11:39.341,-0.89482,1.7083,-9.86699,-3.0518,-4.2725,29.7241,167.5,1.0,80.0,-0.89482,-1.7083,9.86699,-3.0518,4.2725,29.7241,-347.5,1.0,80.0,4542,176,7736,29.29
51,2026-03-06T17:11:39.441000,17:11:39.441,-0.04785,1.84229,-9.41719,-3.8452,-5.7373,30.8228,167.2,1.1,78.4,-0.04785,-1.84229,9.41719,-3.8452,5.7373,30.8228,-347.2,1.1,78.4,5233,-531,7035,29.54
52,2026-03-06T17:11:39.542000,17:11:39.542,-0.31582,2.20596,-9.89092,-2.6245,-5.7983,30.8228,166.9,1.1,76.5,-0.31582,-2.20596,9.89092,-2.6245,5.7983,30.8228,-346.9,1.1,76.5,5744,-657,6233,29.41
53,2026-03-06T17:11:39.644000,17:11:39.644,-0.89482,2.13896,-9.85264,-1.4648,-4.3945,31.25,166.7,1.0,74.6,-0.89482,-2.13896,9.85264,-1.4648,4.3945,31.25,-346.7,1.0,74.6,6088,-251,5575,29.41
54,2026-03-06T17:11:39.741000,17:11:39.741,-1.41641,2.08154,-9.5416,-1.8921,-3.9673,32.1045,166.5,0.9,73.1,-1.41641,-2.08154,9.5416,-1.8921,3.9673,32.1045,-346.5,0.9,73.1,6447,418,5138,29.47
55,2026-03-06T17:11:39.841000,17:11:39.841,-0.01436,1.91406,-9.77129,-3.8452,-5.127,31.7993,166.2,0.8,71.9,-0.01436,-1.91406,9.77129,-3.8452,5.127,31.7993,-346.2,0.8,71.9,6945,1174,4851,29.47
56,2026-03-06T17:11:39.941000,17:11:39.941,-0.39717,2.41172,-9.43154,-3.8452,-7.5073,30.5786,165.8,0.7,71.0,-0.39717,-2.41172,9.43154,-3.8452,7.5073,30.5786,-345.8,0.7,71.0,7307,2001,4744,29.54
57,2026-03-06T17:11:40.040000,17:11:40.040,0.27754,2.45479,-9.65645,-1.8311,-6.4697,29.6631,165.5,0.8,70.5,0.27754,-2.45479,9.65645,-1.8311,6.4697,29.6631,-345.5,0.8,70.5,7385,2846,5089,29.54
58,2026-03-06T17:11:40.140000,17:11:40.140,-0.61729,2.44043,-9.58945,-2.4414,-3.9673,28.1372,165.3,0.6,70.6,-0.61729,-2.44043,9.58945,-2.4414,3.9673,28.1372,-345.3,0.6,70.6,7055,3460,6017,29.54
59,2026-03-06T17:11:40.240000,17:11:40.240,0.00957,2.11982,-9.53203,-1.9531,-4.8218,26.5503,165.1,0.4,71.1,0.00957,-2.11982,9.53203,-1.9531,4.8218,26.5503,-345.1,0.4,71.1,6626,3558,7156,29.47
60,2026-03-06T17:11:40.340000,17:11:40.340,0.4498,2.21553,-9.50332,-2.5024,-4.7607,24.5972,165.0,0.3,71.8,0.4498,-2.21553,9.50332,-2.5024,4.7607,24.5972,-345.0,0.3,71.8,6461,3022,8004,29.41
61,2026-03-06T17:11:40.439000,17:11:40.439,-0.01914,2.51221,-9.5751,-2.6855,-3.1128,22.1558,164.8,0.0,72.4,-0.01914,-2.51221,9.5751,-2.6855,3.1128,22.1558,-344.8,0.0,72.4,6603,2179,7930,29.54
62,2026-03-06T17:11:40.539000,17:11:40.539,0.02871,2.31602,-9.51289,-2.6855,-1.77,19.7144,164.7,-0.2,73.0,0.02871,-2.31602,9.51289,-2.6855,1.77,19.7144,-344.7,-0.2,73.0,6886,1746,7043,29.47
63,2026-03-06T17:11:40.638000,17:11:40.638,0.00479,1.80879,-9.24492,-3.1128,-0.4883,18.3716,164.5,-0.7,73.5,0.00479,-1.80879,9.24492,-3.1128,0.4883,18.3716,-344.5,-0.7,73.5,7240,1908,6064,29.47
64,2026-03-06T17:11:40.741000,17:11:40.741,0.95703,1.93799,-9.90527,-3.8452,-6.2256,16.4185,164.4,-0.8,74.1,0.95703,-1.93799,9.90527,-3.8452,6.2256,16.4185,-344.4,-0.8,74.1,7746,2281,5566,29.54
65,2026-03-06T17:11:40.838000,17:11:40.838,0.28711,2.48828,-9.77607,-1.709,-4.0283,15.0146,164.4,-0.9,74.7,0.28711,-2.48828,9.77607,-1.709,4.0283,15.0146,-344.4,-0.9,74.7,8495,2294,5825,29.47
66,2026-03-06T17:11:40.938000,17:11:40.938,0.17227,2.18203,-9.43633,-2.1362,-2.0142,13.1836,164.3,-0.9,75.4,0.17227,-2.18203,9.43633,-2.1362,2.0142,13.1836,-344.3,-0.9,75.4,9236,1765,5732,29.54
67,2026-03-06T17:11:41.038000,17:11:41.038,0.67949,1.98584,-9.65166,-2.5024,-2.5024,12.4512,164.3,-1.1,75.9,0.67949,-1.98584,9.65166,-2.5024,2.5024,12.4512,-344.3,-1.1,75.9,8946,1335,5155,29.54
68,2026-03-06T17:11:41.137000,17:11:41.137,0.7417,2.06719,-9.49375,-2.9907,-1.709,11.0474,164.3,-1.3,76.4,0.7417,-2.06719,9.49375,-2.9907,1.709,11.0474,-344.3,-1.3,76.4,8362,1449,4239,29.47
69,2026-03-06T17:11:41.237000,17:11:41.237,0.62686,2.33516,-9.50811,-3.1128,-1.8921,8.7891,164.2,-1.6,77.2,0.62686,-2.33516,9.50811,-3.1128,1.8921,8.7891,-344.2,-1.6,77.2,8037,1822,3374,29.6
70,2026-03-06T17:11:41.337000,17:11:41.337,1.02402,2.1916,-9.43633,-2.5024,-3.6621,7.6904,164.2,-1.6,78.1,1.02402,-2.1916,9.43633,-2.5024,3.6621,7.6904,-344.2,-1.6,78.1,7910,2144,2823,29.54
71,2026-03-06T17:11:41.437000,17:11:41.437,0.34453,2.12939,-9.6708,-1.4038,-2.0142,6.7749,164.2,-1.7,79.2,0.34453,-2.12939,9.6708,-1.4038,2.0142,6.7749,-344.2,-1.7,79.2,7969,2339,2376,29.47
72,2026-03-06T17:11:41.538000,17:11:41.538,0.646,2.27295,-9.45068,-1.1597,-0.5493,5.6152,164.3,-1.9,80.3,0.646,-2.27295,9.45068,-1.1597,0.5493,5.6152,-344.3,-1.9,80.3,8228,2453,1896,29.47
73,2026-03-06T17:11:41.637000,17:11:41.637,0.94746,2.26816,-9.80479,-0.1221,-0.1221,5.0659,164.5,-2.1,81.5,0.94746,-2.26816,9.80479,-0.1221,0.1221,5.0659,-344.5,-2.1,81.5,8801,2694,1217,29.47
74,2026-03-06T17:11:41.737000,17:11:41.737,0.99531,2.06719,-10.0584,0.1831,-1.1597,3.479,164.7,-2.3,82.6,0.99531,-2.06719,10.0584,0.1831,1.1597,3.479,-344.7,-2.3,82.6,9507,3312,439,29.41
75,2026-03-06T17:11:41.837000,17:11:41.837,1.02881,1.94756,-9.9627,-0.2441,-1.2817,1.5259,165.0,-2.5,84.0,1.02881,-1.94756,9.9627,-0.2441,1.2817,1.5259,-345.0,-2.5,84.0,10063,4208,151,29.6
76,2026-03-06T17:11:41.936000,17:11:41.936,1.04795,1.95713,-9.35977,-0.6104,-0.1221,1.5869,165.2,-2.6,85.4,1.04795,-1.95713,9.35977,-0.6104,0.1221,1.5869,-345.2,-2.6,85.4,10446,5095,620,29.47
77,2026-03-06T17:11:42.036000,17:11:42.036,0.94268,2.12461,-9.7043,-0.5493,-2.5024,1.5869,165.3,-2.7,86.6,0.94268,-2.12461,9.7043,-0.5493,2.5024,1.5869,-345.3,-2.7,86.6,10595,5621,1910,29.6
78,2026-03-06T17:11:42.136000,17:11:42.136,0.53594,1.65088,-9.58467,0.0,-0.9766,2.1973,165.5,-2.7,87.7,0.53594,-1.65088,9.58467,0.0,0.9766,2.1973,-345.5,-2.7,87.7,10682,5229,3768,29.41
79,2026-03-06T17:11:42.236000,17:11:42.236,0.52158,1.58389,-9.67559,-0.6714,-0.6714,1.709,165.7,-2.6,88.8,0.52158,-1.58389,9.67559,-0.6714,0.6714,1.709,-345.7,-2.6,88.8,10960,3903,4436,29.6
80,2026-03-06T17:11:42.336000,17:11:42.336,0.80869,1.04316,-9.88613,-0.9766,-1.2817,1.6479,165.9,-2.6,89.8,0.80869,-1.04316,9.88613,-0.9766,1.2817,1.6479,-345.9,-2.6,89.8,11372,3306,3500,29.47
81,2026-03-06T17:11:42.436000,17:11:42.436,0.82783,0.74648,-9.76172,0.4272,-2.2583,1.6479,166.3,-2.6,90.8,0.82783,-0.74648,9.76172,0.4272,2.2583,1.6479,-346.3,-2.6,90.8,10958,3898,3287,29.6
82,2026-03-06T17:11:42.536000,17:11:42.536,0.27275,1.21543,-9.76172,1.709,0.1221,1.709,166.9,-2.5,91.9,0.27275,-1.21543,9.76172,1.709,-0.1221,1.709,-346.9,-2.5,91.9,9324,4391,4660,29.6
83,2026-03-06T17:11:42.635000,17:11:42.635,0.71299,1.41162,-9.81914,0.9155,0.4272,2.2583,167.4,-2.5,93.3,0.71299,-1.41162,9.81914,0.9155,-0.4272,2.2583,-347.4,-2.5,93.3,7481,4053,5556,29.54
84,2026-03-06T17:11:42.735000,17:11:42.735,0.94746,1.31592,-9.7665,-0.6714,-0.4883,1.709,167.7,-2.6,94.8,0.94746,-1.31592,9.7665,-0.6714,0.4883,1.709,-347.7,-2.6,94.8,6018,3382,5360,29.66
85,2026-03-06T17:11:42.835000,17:11:42.835,0.84697,1.14844,-8.56064,0.6104,-1.4648,1.2817,167.9,-2.6,96.2,0.84697,-1.14844,8.56064,0.6104,1.4648,1.2817,-347.9,-2.6,96.2,5101,2872,4438,29.66
86,2026-03-06T17:11:42.935000,17:11:42.935,0.50723,0.92832,-8.68027,6.897,-1.8921,1.5259,168.6,-2.6,97.6,0.50723,-0.92832,8.68027,6.897,1.8921,1.5259,-348.6,-2.6,97.6,4702,3136,3413,29.6
87,2026-03-06T17:11:43.036000,17:11:43.036,0.62207,1.10059,-9.66123,8.0566,-2.6245,1.4648,169.7,-2.5,99.2,0.62207,-1.10059,9.66123,8.0566,2.6245,1.4648,-349.7,-2.5,99.2,4478,3614,3246,29.6
88,2026-03-06T17:11:43.134000,17:11:43.134,0.66992,1.01445,-10.13975,6.5308,-1.6479,1.5869,170.7,-2.4,100.9,0.66992,-1.01445,10.13975,6.5308,1.6479,1.5869,-350.7,-2.4,100.9,4720,3888,3587,29.54
89,2026-03-06T17:11:43.234000,17:11:43.234,0.77041,0.82783,-9.83828,5.0049,-1.6479,1.2207,171.4,-2.3,102.3,0.77041,-0.82783,9.83828,5.0049,1.6479,1.2207,-351.4,-2.3,102.3,5822,4024,4637,29.54
90,2026-03-06T17:11:43.334000,17:11:43.334,0.5168,0.67949,-9.74258,4.3335,-0.1221,1.0376,172.1,-2.4,103.4,0.5168,-0.67949,9.74258,4.3335,0.1221,1.0376,-352.1,-2.4,103.4,7098,3751,5794,29.54
91,2026-03-06T17:11:43.434000,17:11:43.434,0.49766,0.74648,-9.93398,5.188,-1.3428,1.3428,172.7,-2.4,104.0,0.49766,-0.74648,9.93398,5.188,1.3428,1.3428,-352.7,-2.4,104.0,7873,3268,6712,29.6
92,2026-03-06T17:11:43.534000,17:11:43.534,0.75127,0.65078,-10.06797,5.9204,-1.8311,1.4038,173.4,-2.3,104.3,0.75127,-0.65078,10.06797,5.9204,1.8311,1.4038,-353.4,-2.3,104.3,8535,2501,7175,29.47
93,2026-03-06T17:11:43.634000,17:11:43.634,-0.13877,0.99053,-8.84775,4.3945,-1.2207,0.9155,174.1,-2.3,104.2,-0.13877,-0.99053,8.84775,4.3945,1.2207,0.9155,-354.1,-2.3,104.2,9374,1796,6793,29.47
94,2026-03-06T17:11:43.733000,17:11:43.733,0.39717,0.27754,-9.16357,-0.7324,-0.2441,1.0376,174.4,-2.3,104.0,0.39717,-0.27754,9.16357,-0.7324,0.2441,1.0376,-354.4,-2.3,104.0,10305,1713,6060,29.6
95,2026-03-06T17:11:43.833000,17:11:43.833,0.44502,0.60293,-9.77129,-2.6855,1.6479,1.0986,174.3,-2.5,103.8,0.44502,-0.60293,9.77129,-2.6855,-1.6479,1.0986,-354.3,-2.5,103.8,10841,2136,5600,29.6
96,2026-03-06T17:11:43.933000,17:11:43.933,1.12451,1.10059,-10.29287,-1.1597,-0.6104,0.4272,174.2,-2.7,103.7,1.12451,-1.10059,10.29287,-1.1597,0.6104,0.4272,-354.2,-2.7,103.7,10779,2559,5664,29.6
97,2026-03-06T17:11:44.032000,17:11:44.032,0.66992,0.81826,-9.69951,2.6245,0.0,0.9766,174.3,-2.8,103.6,0.66992,-0.81826,9.69951,2.6245,-0.0,0.9766,-354.3,-2.8,103.6,10279,2599,5891,29.6
98,2026-03-06T17:11:44.132000,17:11:44.132,1.10059,0.70342,-9.93398,3.54,-1.6479,0.061,174.7,-2.8,103.7,1.10059,-0.70342,9.93398,3.54,1.6479,0.061,-354.7,-2.8,103.7,9436,2437,6076,29.47
99,2026-03-06T17:11:44.232000,17:11:44.232,0.6125,0.59814,-9.46504,2.6245,-0.8545,-0.3662,175.0,-2.9,103.9,0.6125,-0.59814,9.46504,2.6245,0.8545,-0.3662,-355.0,-2.9,103.9,8454,2298,5966,29.6
100,2026-03-06T17:11:44.332000,17:11:44.332,0.68428,0.84697,-10.09189,1.1597,-1.0376,0.3052,175.2,-2.9,104.1,0.68428,-0.84697,10.09189,1.1597,1.0376,0.3052,-355.2,-2.9,104.1,7409,2309,5600,29.66
101,2026-03-06T17:11:44.432000,17:11:44.432,0.6125,0.62686,-9.80479,2.1362,-0.5493,0.3662,175.4,-3.0,104.5,0.6125,-0.62686,9.80479,2.1362,0.5493,0.3662,-355.4,-3.0,104.5,6552,2513,5041,29.54
102,2026-03-06T17:11:44.532000,17:11:44.532,0.31582,0.56465,-10.04404,1.709,-0.7324,0.4272,175.6,-3.0,105.0,0.31582,-0.56465,10.04404,1.709,0.7324,0.4272,-355.6,-3.0,105.0,6387,2943,4442,29.66
103,2026-03-06T17:11:44.632000,17:11:44.632,0.23447,0.62207,-9.89092,3.1128,1.1597,0.9155,175.8,-3.1,105.6,0.23447,-0.62207,9.89092,3.1128,-1.1597,0.9155,-355.8,-3.1,105.6,6937,3354,4376,29.6
104,2026-03-06T17:11:44.731000,17:11:44.731,0.75605,0.71299,-9.60381,3.6011,-0.061,0.9766,176.2,-3.1,106.2,0.75605,-0.71299,9.60381,3.6011,0.061,0.9766,-356.2,-3.1,106.2,7730,3418,4616,29.54
105,2026-03-06T17:11:44.831000,17:11:44.831,1.18672,0.94268,-10.1876,2.3193,-0.061,0.5493,176.4,-3.2,106.5,1.18672,-0.94268,10.1876,2.3193,0.061,0.5493,-356.4,-3.2,106.5,8496,3327,4762,29.54
106,2026-03-06T17:11:44.931000,17:11:44.931,0.80391,0.7082,-9.83828,-1.6479,-1.4648,0.2441,176.4,-3.3,106.8,0.80391,-0.7082,9.83828,-1.6479,1.4648,0.2441,-356.4,-3.3,106.8,9152,3289,4923,29.47
107,2026-03-06T17:11:45.031000,17:11:45.031,1.05752,0.54551,-9.67559,-0.9155,-1.5869,0.2441,176.3,-3.3,106.9,1.05752,-0.54551,9.67559,-0.9155,1.5869,0.2441,-356.3,-3.3,106.9,9698,3351,5092,29.54
108,2026-03-06T17:11:45.130000,17:11:45.130,0.35889,0.91875,-10.47471,-0.6714,-0.6104,0.1221,176.3,-3.3,107.0,0.35889,-0.91875,10.47471,-0.6714,0.6104,0.1221,-356.3,-3.3,107.0,10301,3478,5255,29.6
109,2026-03-06T17:11:45.230000,17:11:45.230,0.72256,0.58857,-10.04883,-1.6479,0.1831,0.5493,176.2,-3.4,107.1,0.72256,-0.58857,10.04883,-1.6479,-0.1831,0.5493,-356.2,-3.4,107.1,10790,3668,5753,29.66
110,2026-03-06T17:11:45.330000,17:11:45.330,0.53115,0.63643,-9.4124,0.1831,-0.7324,1.3428,176.1,-3.4,107.2,0.53115,-0.63643,9.4124,0.1831,0.7324,1.3428,-356.1,-3.4,107.2,11125,3731,6624,29.6
111,2026-03-06T17:11:45.430000,17:11:45.430,0.80391,0.88525,-9.9627,0.4883,0.2441,1.1597,176.2,-3.3,107.2,0.80391,-0.88525,9.9627,0.4883,-0.2441,1.1597,-356.2,-3.3,107.2,11543,3431,8016,29.47
112,2026-03-06T17:11:45.530000,17:11:45.530,0.69385,0.7752,-9.47939,-1.2817,0.0,0.6104,176.1,-3.5,107.2,0.69385,-0.7752,9.47939,-1.2817,-0.0,0.6104,-356.1,-3.5,107.2,11674,2419,9664,29.6
113,2026-03-06T17:11:45.630000,17:11:45.630,0.80869,0.65557,-10.0584,-1.5259,-1.8311,1.0986,176.0,-3.5,107.3,0.80869,-0.65557,10.0584,-1.5259,1.8311,1.0986,-356.0,-3.5,107.3,11161,910,10538,29.66
114,2026-03-06T17:11:45.729000,17:11:45.729,1.11973,0.77041,-9.8335,-0.5493,-0.4883,0.7324,176.0,-3.6,107.2,1.11973,-0.77041,9.8335,-0.5493,0.4883,0.7324,-356.0,-3.6,107.2,10441,-541,10442,29.6
115,2026-03-06T17:11:45.829000,17:11:45.829,0.78955,0.7752,-9.51289,0.6104,-1.0986,0.3052,176.0,-3.5,106.3,0.78955,-0.7752,9.51289,0.6104,1.0986,0.3052,-356.0,-3.5,106.3,9915,-1948,9337,29.66
116,2026-03-06T17:11:45.929000,17:11:45.929,0.96182,0.66514,-9.59902,0.061,-1.6479,1.5259,176.0,-3.4,104.7,0.96182,-0.66514,9.59902,0.061,1.6479,1.5259,-356.0,-3.4,104.7,9539,-2688,7066,29.54
117,2026-03-06T17:11:46.029000,17:11:46.029,0.48809,0.47852,-10.30244,1.77,-0.9155,0.4272,176.1,-3.4,103.0,0.48809,-0.47852,10.30244,1.77,0.9155,0.4272,-356.1,-3.4,103.0,9415,-2441,4544,29.66
118,2026-03-06T17:11:46.129000,17:11:46.129,0.65557,0.84697,-10.19238,1.0986,1.5869,1.2817,176.3,-3.5,101.6,0.65557,-0.84697,10.19238,1.0986,-1.5869,1.2817,-356.3,-3.5,101.6,9581,-1412,2045,29.6
119,2026-03-06T17:11:46.229000,17:11:46.229,0.47373,0.26318,-9.40762,-1.6479,1.8311,1.709,176.2,-3.6,100.6,0.47373,-0.26318,9.40762,-1.6479,-1.8311,1.709,-356.2,-3.6,100.6,9645,67,-43,29.66
120,2026-03-06T17:11:46.328000,17:11:46.328,1.11016,0.7082,-10.00576,0.2441,-1.1597,0.6104,176.2,-3.6,100.3,1.11016,-0.7082,10.00576,0.2441,1.1597,0.6104,-356.2,-3.6,100.3,9423,2322,-1584,29.6
121,2026-03-06T17:11:46.428000,17:11:46.428,0.83262,0.71299,-9.75693,-0.7935,-0.7324,0.0,176.2,-3.6,100.9,0.83262,-0.71299,9.75693,-0.7935,0.7324,0.0,-356.2,-3.6,100.9,9356,5148,-1218,29.6
122,2026-03-06T17:11:46.528000,17:11:46.528,0.82305,0.72734,-9.80479,-0.2441,-4.2725,0.2441,176.2,-3.4,102.1,0.82305,-0.72734,9.80479,-0.2441,4.2725,0.2441,-356.2,-3.4,102.1,9965,6305,1031,29.66
123,2026-03-06T17:11:46.628000,17:11:46.628,0.75605,0.49287,-9.35498,-0.061,-0.5493,0.5493,176.2,-3.4,103.2,0.75605,-0.49287,9.35498,-0.061,0.5493,0.5493,-356.2,-3.4,103.2,10923,5636,3063,29.66
124,2026-03-06T17:11:46.730000,17:11:46.730,1.06709,0.54551,-10.19238,-0.7324,-0.5493,0.8545,176.2,-3.4,104.3,1.06709,-0.54551,10.19238,-0.7324,0.5493,0.8545,-356.2,-3.4,104.3,11345,4951,4352,29.6
125,2026-03-06T17:11:46.828000,17:11:46.828,1.02881,0.39717,-9.80957,-3.479,1.4038,0.9766,176.0,-3.5,105.2,1.02881,-0.39717,9.80957,-3.479,-1.4038,0.9766,-356.0,-3.5,105.2,11134,4669,5281,29.6
126,2026-03-06T17:11:46.927000,17:11:46.927,1.11494,0.53115,-9.65166,-2.3193,-0.4272,-0.4272,175.7,-3.6,106.2,1.11494,-0.53115,9.65166,-2.3193,0.4272,-0.4272,-355.7,-3.6,106.2,10723,4202,6138,29.66
127,2026-03-06T17:11:47.027000,17:11:47.027,0.75127,1.0001,-9.39326,1.8921,0.7935,0.2441,175.8,-3.8,107.1,0.75127,-1.0001,9.39326,1.8921,-0.7935,0.2441,-355.8,-3.8,107.1,10666,3151,6411,29.66
128,2026-03-06T17:11:47.127000,17:11:47.127,1.08623,0.67471,-10.01533,-0.4883,-1.3428,0.4883,175.9,-3.8,108.0,1.08623,-0.67471,10.01533,-0.4883,1.3428,0.4883,-355.9,-3.8,108.0,11070,2341,5830,29.6
129,2026-03-06T17:11:47.227000,17:11:47.227,0.72256,0.33018,-9.34541,-0.9155,-0.7324,0.061,175.8,-3.7,108.8,0.72256,-0.33018,9.34541,-0.9155,0.7324,0.061,-355.8,-3.7,108.8,11314,2299,5055,29.79
130,2026-03-06T17:11:47.326000,17:11:47.326,0.43066,1.92363,-9.00088,-0.7935,-1.3428,-0.5493,175.8,-3.7,109.6,0.43066,-1.92363,9.00088,-0.7935,1.3428,-0.5493,-355.8,-3.7,109.6,10837,2606,4363,29.66
131,2026-03-06T17:11:47.426000,17:11:47.426,1.08145,1.75615,-9.57031,-1.709,2.1973,0.7935,175.5,-3.8,109.8,1.08145,-1.75615,9.57031,-1.709,-2.1973,0.7935,-355.5,-3.8,109.8,9690,3173,3878,29.66
132,2026-03-06T17:11:47.526000,17:11:47.526,0.89961,1.69395,-9.57031,-1.5259,3.1128,1.2207,175.1,-4.0,109.9,0.89961,-1.69395,9.57031,-1.5259,-3.1128,1.2207,-355.1,-4.0,109.9,8550,3889,3860,29.66
133,2026-03-06T17:11:47.626000,17:11:47.626,0.65557,1.71787,-9.91484,1.4648,-0.7935,-0.061,174.8,-4.1,110.4,0.65557,-1.71787,9.91484,1.4648,0.7935,-0.061,-354.8,-4.1,110.4,8004,4095,4090,29.6
134,2026-03-06T17:11:47.726000,17:11:47.726,0.7752,1.43555,-9.19229,1.8311,-0.4272,0.6714,174.8,-4.1,110.9,0.7752,-1.43555,9.19229,1.8311,0.4272,0.6714,-354.8,-4.1,110.9,7905,4377,3943,29.79
135,2026-03-06T17:11:47.826000,17:11:47.826,0.66035,1.44033,-10.18281,-1.6479,-1.6479,-0.4272,174.5,-4.2,111.6,0.66035,-1.44033,10.18281,-1.6479,1.6479,-0.4272,-354.5,-4.2,111.6,8133,4860,4351,29.54
136,2026-03-06T17:11:47.925000,17:11:47.925,1.25371,1.03838,-10.24502,-1.6479,0.2441,0.1831,174.2,-4.3,112.2,1.25371,-1.03838,10.24502,-1.6479,-0.2441,0.1831,-354.2,-4.3,112.2,8629,4665,5252,29.66
137,2026-03-06T17:11:48.025000,17:11:48.025,0.95703,0.21055,-8.93867,-0.1221,2.1973,0.3052,174.1,-4.5,112.4,0.95703,-0.21055,8.93867,-0.1221,-2.1973,0.3052,-354.1,-4.5,112.4,9426,3927,5839,29.66
138,2026-03-06T17:11:48.125000,17:11:48.125,1.15801,0.94746,-9.17793,-0.7935,-0.7935,1.4038,174.2,-4.5,112.4,1.15801,-0.94746,9.17793,-0.7935,0.7935,1.4038,-354.2,-4.5,112.4,9971,3189,6057,29.66
139,2026-03-06T17:11:48.225000,17:11:48.225,1.00488,0.60771,-9.58467,0.2441,-0.061,0.4883,174.3,-4.5,112.4,1.00488,-0.60771,9.58467,0.2441,0.061,0.4883,-354.3,-4.5,112.4,10294,2749,5866,29.73
140,2026-03-06T17:11:48.325000,17:11:48.325,0.66035,0.42588,-9.91484,-1.3428,-0.9766,-0.061,174.3,-4.6,112.3,0.66035,-0.42588,9.91484,-1.3428,0.9766,-0.061,-354.3,-4.6,112.3,10697,2743,5864,29.66
141,2026-03-06T17:11:48.424000,17:11:48.424,0.59814,0.32061,-9.4459,-1.5259,-0.6714,0.4272,174.3,-4.5,112.3,0.59814,-0.32061,9.4459,-1.5259,0.6714,0.4272,-354.3,-4.5,112.3,10936,2607,6143,29.79
142,2026-03-06T17:11:48.524000,17:11:48.524,1.0001,0.2584,-9.62295,0.9766,-0.7935,0.0,174.6,-4.8,111.9,1.0001,-0.2584,9.62295,0.9766,0.7935,0.0,-354.6,-4.8,111.9,11085,2319,6183,29.73
143,2026-03-06T17:11:56.410000,17:11:56.410,0.36846,-1.70352,-9.61816,-0.5493,0.3662,0.3052,-168.1,-1.1,100.3,0.36846,1.70352,9.61816,-0.5493,-0.3662,0.3052,-11.9,-1.1,100.3,12973,4576,5003,29.85
144,2026-03-06T17:11:56.510000,17:11:56.510,0.33018,-1.6126,-9.69951,-0.3052,-0.4272,0.3662,-168.3,-1.1,100.2,0.33018,1.6126,9.69951,-0.3052,0.4272,0.3662,-11.7,-1.1,100.2,13081,4599,4730,29.79
145,2026-03-06T17:11:56.610000,17:11:56.610,0.33975,-1.77051,-9.60381,-0.3662,-0.5493,0.4272,-168.4,-1.1,100.1,0.33975,1.77051,9.60381,-0.3662,0.5493,0.4272,-11.6,-1.1,100.1,13097,4608,4662,29.98
146,2026-03-06T17:11:56.709000,17:11:56.709,0.33496,-1.66045,-9.50811,-0.3662,-0.3662,0.3662,-168.5,-1.1,100.1,0.33496,1.66045,9.50811,-0.3662,0.3662,0.3662,-11.5,-1.1,100.1,13101,4600,4684,29.92
147,2026-03-06T17:11:56.809000,17:11:56.809,0.37324,-1.72744,-9.53203,-0.1831,-0.1221,0.061,-168.6,-1.1,100.0,0.37324,1.72744,9.53203,-0.1831,0.1221,0.061,-11.4,-1.1,100.0,13099,4591,4710,29.85
148,2026-03-06T17:11:56.909000,17:11:56.909,0.41631,-1.72266,-9.7043,-0.4272,-0.5493,0.3052,-168.7,-1.1,99.9,0.41631,1.72266,9.7043,-0.4272,0.5493,0.3052,-11.3,-1.1,99.9,13117,4589,4654,29.79
149,2026-03-06T17:11:57.008000,17:11:57.008,0.33975,-1.6748,-9.55596,-0.4272,-0.6714,0.3052,-168.8,-1.2,99.9,0.33975,1.6748,9.55596,-0.4272,0.6714,0.3052,-11.2,-1.2,99.9,13094,4599,4714,29.92
150,2026-03-06T17:11:57.108000,17:11:57.108,0.31582,-1.72744,-9.57988,-0.1831,-0.4883,0.4883,-168.9,-1.2,99.8,0.31582,1.72744,9.57988,-0.1831,0.4883,0.4883,-11.1,-1.2,99.8,13097,4608,4697,29.79
151,2026-03-06T17:11:57.208000,17:11:57.208,0.43066,-1.1915,-9.68516,-0.6714,-0.6714,0.3662,-169.0,-1.2,99.7,0.43066,1.1915,9.68516,-0.6714,0.6714,0.3662,-11.0,-1.2,99.7,13075,4590,4638,29.79
152,2026-03-06T17:11:57.308000,17:11:57.308,0.40674,-1.04795,-9.81914,-0.9766,-0.3662,0.2441,-169.3,-1.2,99.7,0.40674,1.04795,9.81914,-0.9766,0.3662,0.2441,-10.7,-1.2,99.7,13083,4591,4649,29.73
153,2026-03-06T17:11:57.408000,17:11:57.408,0.46895,-1.10537,-9.78086,-0.8545,-0.3052,0.4272,-169.6,-1.2,99.6,0.46895,1.10537,9.78086,-0.8545,0.3052,0.4272,-10.4,-1.2,99.6,13079,4566,4654,29.85
154,2026-03-06T17:11:57.508000,17:11:57.508,0.40674,-1.05752,-9.69473,-0.6104,-0.5493,0.3052,-169.9,-1.3,99.6,0.40674,1.05752,9.69473,-0.6104,0.5493,0.3052,-10.1,-1.3,99.6,13071,4564,4730,29.92
155,2026-03-06T17:11:57.607000,17:11:57.607,0.40195,-0.98574,-9.64209,-0.7324,-0.6104,0.3662,-170.2,-1.3,99.5,0.40195,0.98574,9.64209,-0.7324,0.6104,0.3662,-9.8,-1.3,99.5,13106,4466,4660,29.92
156,2026-03-06T17:11:57.707000,17:11:57.707,0.41631,-1.0001,-9.79043,-0.7324,-0.4272,0.3662,-170.5,-1.3,99.5,0.41631,1.0001,9.79043,-0.7324,0.4272,0.3662,-9.5,-1.3,99.5,13090,4390,4644,29.92
157,2026-03-06T17:11:57.807000,17:11:57.807,0.35889,-1.03359,-9.75693,-1.0986,0.4883,0.1831,-170.8,-1.4,99.4,0.35889,1.03359,9.75693,-1.0986,-0.4883,0.1831,-9.2,-1.4,99.4,13051,4316,4745,29.92
158,2026-03-06T17:11:57.907000,17:11:57.907,0.35889,-1.15801,-9.69951,-1.0986,0.4272,0.4272,-171.0,-1.4,99.3,0.35889,1.15801,9.69951,-1.0986,-0.4272,0.4272,-9.0,-1.4,99.3,13005,4224,4686,29.85
159,2026-03-06T17:11:58.007000,17:11:58.007,0.3876,-1.0958,-9.70908,-0.8545,-0.3662,0.7935,-171.3,-1.5,99.3,0.3876,1.0958,9.70908,-0.8545,0.3662,0.7935,-8.7,-1.5,99.3,12912,4143,4655,30.11
160,2026-03-06T17:11:58.106000,17:11:58.106,0.43066,-1.07188,-9.82871,-0.9766,0.2441,1.0376,-171.5,-1.5,99.1,0.43066,1.07188,9.82871,-0.9766,-0.2441,1.0376,-8.5,-1.5,99.1,12823,4015,4583,29.79
161,2026-03-06T17:11:58.206000,17:11:58.206,0.5168,-0.90439,-9.6373,-1.3428,-0.1221,0.4272,-171.7,-1.6,99.0,0.5168,0.90439,9.6373,-1.3428,0.1221,0.4272,-8.3,-1.6,99.0,12697,3892,4547,29.98
162,2026-03-06T17:11:58.306000,17:11:58.306,0.42109,-0.78955,-9.55117,-1.2817,0.4883,0.4272,-172.0,-1.6,99.0,0.42109,0.78955,9.55117,-1.2817,-0.4883,0.4272,-8.0,-1.6,99.0,12561,3815,4393,29.98
163,2026-03-06T17:11:58.406000,17:11:58.406,0.5168,-0.85176,-9.90049,-1.2817,0.4272,0.8545,-172.3,-1.7,98.9,0.5168,0.85176,9.90049,-1.2817,-0.4272,0.8545,-7.7,-1.7,98.9,12358,3740,4201,29.85
164,2026-03-06T17:11:58.506000,17:11:58.506,0.5168,-0.83262,-9.91006,-1.6479,-0.1221,1.1597,-172.6,-1.8,98.8,0.5168,0.83262,9.91006,-1.6479,0.1221,1.1597,-7.4,-1.8,98.8,12125,3704,4042,29.92
165,2026-03-06T17:11:58.606000,17:11:58.606,0.67471,-0.80869,-9.74258,-2.0142,0.0,0.6714,-172.9,-1.8,98.7,0.67471,0.80869,9.74258,-2.0142,-0.0,0.6714,-7.1,-1.8,98.7,11831,3739,3788,29.98
166,2026-03-06T17:11:58.706000,17:11:58.706,0.33018,-0.84219,-9.98662,-1.709,-0.7324,0.4883,-173.2,-1.8,98.6,0.33018,0.84219,9.98662,-1.709,0.7324,0.4883,-6.8,-1.8,98.6,11507,3814,3518,29.85
167,2026-03-06T17:11:58.806000,17:11:58.806,0.37324,-1.14365,-10.0249,-1.4038,0.0,1.0376,-173.4,-1.9,98.5,0.37324,1.14365,10.0249,-1.4038,-0.0,1.0376,-6.6,-1.9,98.5,11091,4006,3265,30.04
168,2026-03-06T17:11:58.906000,17:11:58.906,0.44502,-1.11494,-9.65166,-1.0986,0.1831,1.2207,-173.6,-1.9,98.4,0.44502,1.11494,9.65166,-1.0986,-0.1831,1.2207,-6.4,-1.9,98.4,10723,4240,3006,29.79
169,2026-03-06T17:11:59.005000,17:11:59.005,0.49287,-1.07188,-9.56074,-0.7935,0.3052,0.6104,-173.6,-1.9,98.3,0.49287,1.07188,9.56074,-0.7935,-0.3052,0.6104,-6.4,-1.9,98.3,10405,4519,2608,30.04
170,2026-03-06T17:11:59.105000,17:11:59.105,0.63164,-1.225,-9.78564,-2.2583,-1.2817,1.0986,-173.8,-1.9,98.2,0.63164,1.225,9.78564,-2.2583,1.2817,1.0986,-6.2,-1.9,98.2,10243,4816,2514,29.85
171,2026-03-06T17:11:59.205000,17:11:59.205,0.26318,-0.9666,-9.42676,-3.0518,-0.5493,0.7324,-174.0,-1.8,98.1,0.26318,0.9666,9.42676,-3.0518,0.5493,0.7324,-6.0,-1.8,98.1,10182,5102,2493,30.04
172,2026-03-06T17:11:59.305000,17:11:59.305,0.29668,-1.31113,-10.03926,-1.77,-0.4272,0.7935,-174.2,-1.8,98.0,0.29668,1.31113,10.03926,-1.77,0.4272,0.7935,-5.8,-1.8,98.0,10235,5395,2535,29.85
173,2026-03-06T17:11:59.405000,17:11:59.405,0.55986,-1.26807,-10.05361,-0.4272,0.3662,1.4648,-174.2,-1.8,97.9,0.55986,1.26807,10.05361,-0.4272,-0.3662,1.4648,-5.8,-1.8,97.9,10418,5715,2809,29.92
174,2026-03-06T17:11:59.504000,17:11:59.504,0.50244,-1.34463,-9.47939,-0.6714,-0.1221,1.1597,-174.2,-1.8,97.7,0.50244,1.34463,9.47939,-0.6714,0.1221,1.1597,-5.8,-1.8,97.7,10633,6012,3153,29.92
175,2026-03-06T17:11:59.604000,17:11:59.604,0.33496,-1.21064,-9.34541,-0.6104,-0.3662,0.7935,-174.1,-1.8,97.6,0.33496,1.21064,9.34541,-0.6104,0.3662,0.7935,-5.9,-1.8,97.6,10779,6204,3704,29.85
176,2026-03-06T17:11:59.704000,17:11:59.704,0.47852,-1.71309,-10.09668,-2.5024,-0.9766,1.2817,-174.2,-1.8,97.5,0.47852,1.71309,10.09668,-2.5024,0.9766,1.2817,-5.8,-1.8,97.5,10817,6295,4313,29.98
177,2026-03-06T17:11:59.804000,17:11:59.804,0.23926,-1.70352,-9.97705,-2.2583,-1.0986,1.0376,-174.2,-1.7,97.4,0.23926,1.70352,9.97705,-2.2583,1.0986,1.0376,-5.8,-1.7,97.4,10699,6247,4804,29.85
178,2026-03-06T17:11:59.904000,17:11:59.904,0.49287,-0.97617,-9.46025,-0.8545,-1.4648,0.9155,-174.1,-1.5,97.4,0.49287,0.97617,9.46025,-0.8545,1.4648,0.9155,-5.9,-1.5,97.4,10424,6096,5301,29.98
179,2026-03-06T17:12:00.004000,17:12:00.004,-0.08135,-1.26807,-9.88135,-0.4272,2.1362,0.2441,-174.1,-1.5,97.8,-0.08135,1.26807,9.88135,-0.4272,-2.1362,0.2441,-5.9,-1.5,97.8,10024,5892,5705,29.85
180,2026-03-06T17:12:00.104000,17:12:00.104,0.41631,-1.29199,-9.90049,-2.0752,1.8311,1.0376,-174.1,-1.6,98.8,0.41631,1.29199,9.90049,-2.0752,-1.8311,1.0376,-5.9,-1.6,98.8,9518,5615,6051,30.04
181,2026-03-06T17:12:00.203000,17:12:00.203,0.53115,-1.08145,-9.43154,-2.1973,1.2207,1.5869,-174.3,-1.8,99.6,0.53115,1.08145,9.43154,-2.1973,-1.2207,1.5869,-5.7,-1.8,99.6,9016,5198,6354,30.11
182,2026-03-06T17:12:00.303000,17:12:00.303,0.45938,-1.33506,-9.97227,-1.5259,0.2441,0.3052,-174.4,-1.9,100.4,0.45938,1.33506,9.97227,-1.5259,-0.2441,0.3052,-5.6,-1.9,100.4,8620,4619,6433,29.98
183,2026-03-06T17:12:00.403000,17:12:00.403,0.50723,-1.40684,-10.06318,-2.3193,-0.3662,0.4883,-174.4,-1.9,101.0,0.50723,1.40684,10.06318,-2.3193,0.3662,0.4883,-5.6,-1.9,101.0,8273,4004,6321,29.85
184,2026-03-06T17:12:00.503000,17:12:00.503,0.34932,-1.23457,-9.65645,-3.2349,-0.6714,1.4648,-174.6,-1.9,101.3,0.34932,1.23457,9.65645,-3.2349,0.6714,1.4648,-5.4,-1.9,101.3,8051,3379,5996,29.92
185,2026-03-06T17:12:00.603000,17:12:00.603,0.47852,-1.27285,-9.73301,-3.0518,-1.8311,1.1597,-174.7,-1.8,101.5,0.47852,1.27285,9.73301,-3.0518,1.8311,1.1597,-5.3,-1.8,101.5,7915,2885,5390,29.98
186,2026-03-06T17:12:00.702000,17:12:00.702,0.44502,-1.42598,-9.59902,-3.6621,-0.1221,0.3052,-175.0,-1.8,101.6,0.44502,1.42598,9.59902,-3.6621,0.1221,0.3052,-5.0,-1.8,101.6,7894,2539,4651,30.11
187,2026-03-06T17:12:00.802000,17:12:00.802,0.19619,-0.23926,-9.8957,-4.0283,0.0,0.4272,-175.3,-1.8,101.7,0.19619,0.23926,9.8957,-4.0283,-0.0,0.4272,-4.7,-1.8,101.7,7917,2425,3805,29.98
188,2026-03-06T17:12:00.908000,17:12:00.908,0.66035,-0.06221,-9.82871,-2.6245,0.3662,1.2817,-175.8,-1.9,101.9,0.66035,0.06221,9.82871,-2.6245,-0.3662,1.2817,-4.2,-1.9,101.9,7849,2529,3235,29.85
189,2026-03-06T17:12:01.002000,17:12:01.002,0.69385,0.34932,-9.93877,-0.7324,-1.5259,-2.3804,-176.0,-2.0,102.2,0.69385,-0.34932,9.93877,-0.7324,1.5259,-2.3804,-4.0,-2.0,102.2,7837,2709,2847,30.17
190,2026-03-06T17:12:01.102000,17:12:01.102,0.63164,-0.15313,-9.8957,-2.4414,-1.0376,0.7324,-176.5,-2.1,102.6,0.63164,0.15313,9.8957,-2.4414,1.0376,0.7324,-3.5,-2.1,102.6,7892,3060,2491,30.04
191,2026-03-06T17:12:01.204000,17:12:01.204,0.22012,0.0335,-9.90527,-3.7231,-0.1221,0.7935,-177.0,-2.1,103.0,0.22012,-0.0335,9.90527,-3.7231,0.1221,0.7935,-3.0,-2.1,103.0,7908,3273,2322,29.92
192,2026-03-06T17:12:01.301000,17:12:01.301,0.55508,-0.06699,-9.86221,-3.2349,0.2441,1.3428,-177.5,-2.2,103.5,0.55508,0.06699,9.86221,-3.2349,-0.2441,1.3428,-2.5,-2.2,103.5,8104,3451,1821,30.04
193,2026-03-06T17:12:01.401000,17:12:01.401,0.34932,0.10049,-9.79043,-2.8687,0.5493,0.7324,-177.9,-2.3,103.9,0.34932,-0.10049,9.79043,-2.8687,-0.5493,0.7324,-2.1,-2.3,103.9,8143,3566,1532,30.04
194,2026-03-06T17:12:01.501000,17:12:01.501,0.73213,0.10049,-9.88613,-2.6245,0.3052,0.7935,-178.3,-2.3,104.4,0.73213,-0.10049,9.88613,-2.6245,-0.3052,0.7935,-1.7,-2.3,104.4,8173,3691,1351,30.11
195,2026-03-06T17:12:01.600000,17:12:01.600,0.20098,0.08135,-9.60859,-4.3945,0.2441,1.0986,-178.7,-2.4,104.9,0.20098,-0.08135,9.60859,-4.3945,-0.2441,1.0986,-1.3,-2.4,104.9,8164,3861,1266,29.98
196,2026-03-06T17:12:01.700000,17:12:01.700,0.579,0.46416,-9.91484,-2.3804,-0.061,0.8545,-179.2,-2.5,105.5,0.579,-0.46416,9.91484,-2.3804,0.061,0.8545,-0.8,-2.5,105.5,8152,4032,1148,29.98
197,2026-03-06T17:12:01.800000,17:12:01.800,0.78477,0.14834,-9.28799,-2.0142,-0.1221,0.1221,-179.5,-2.5,106.1,0.78477,-0.14834,9.28799,-2.0142,0.1221,0.1221,-0.5,-2.5,106.1,8178,4220,1104,30.04
198,2026-03-06T17:12:01.900000,17:12:01.900,0.18184,0.30625,-10.42207,-0.7935,1.1597,-0.3052,-179.8,-2.8,106.8,0.18184,-0.30625,10.42207,-0.7935,-1.1597,-0.3052,-0.2,-2.8,106.8,8202,4405,1096,30.04
199,2026-03-06T17:12:02,17:12:02.000,1.08145,0.24404,-10.16846,1.1597,1.8921,0.8545,-179.8,-2.8,107.5,1.08145,-0.24404,10.16846,1.1597,-1.8921,0.8545,-0.2,-2.8,107.5,8190,4713,1156,30.04
200,2026-03-06T17:12:02.100000,17:12:02.100,0.71777,-0.03828,-10.03926,2.6855,-1.709,0.3662,-179.6,-2.9,108.1,0.71777,0.03828,10.03926,2.6855,1.709,0.3662,-0.4,-2.9,108.1,8260,4778,1193,30.04
201,2026-03-06T17:12:02.199000,17:12:02.199,0.69385,-0.12441,-9.71865,2.3193,-1.2817,0.1221,-179.4,-2.8,108.8,0.69385,0.12441,9.71865,2.3193,1.2817,0.1221,-0.6,-2.8,108.8,8277,4816,1170,29.92
202,2026-03-06T17:12:02.299000,17:12:02.299,0.1292,0.12441,-9.47461,1.1597,-0.4272,0.061,-179.2,-2.8,109.4,0.1292,-0.12441,9.47461,1.1597,0.4272,0.061,-0.8,-2.8,109.4,8274,4856,1166,29.92
203,2026-03-06T17:12:02.399000,17:12:02.399,0.62207,0.02393,-9.62295,0.6104,-0.4883,0.6104,-179.2,-2.8,110.0,0.62207,-0.02393,9.62295,0.6104,0.4883,0.6104,-0.8,-2.8,110.0,8253,4889,1208,30.11
204,2026-03-06T17:12:02.499000,17:12:02.499,0.69385,-0.04307,-10.2498,1.2817,-0.1221,0.1831,-179.2,-2.9,110.6,0.69385,0.04307,10.2498,1.2817,0.1221,0.1831,-0.8,-2.9,110.6,8183,4904,1214,29.98
205,2026-03-06T17:12:02.599000,17:12:02.599,0.71777,-0.11963,-10.01055,0.7935,1.2817,-0.6104,-179.1,-2.9,111.2,0.71777,0.11963,10.01055,0.7935,-1.2817,-0.6104,-0.9,-2.9,111.2,8039,4856,1229,30.11
206,2026-03-06T17:12:02.698000,17:12:02.698,0.98096,-0.49287,-9.70908,-0.3662,-1.1597,-0.5493,-179.1,-3.0,111.8,0.98096,0.49287,9.70908,-0.3662,1.1597,-0.5493,-0.9,-3.0,111.8,7845,4792,1145,29.85
207,2026-03-06T17:12:02.798000,17:12:02.798,0.73691,-0.72734,-9.40762,0.9766,-0.4272,-0.8545,-178.9,-3.0,112.5,0.73691,0.72734,9.40762,0.9766,0.4272,-0.8545,-1.1,-3.0,112.5,7645,4765,1062,30.17
208,2026-03-06T17:12:02.898000,17:12:02.898,0.68906,-0.91396,-9.65166,-0.4883,0.6104,-1.1597,-178.6,-3.0,113.1,0.68906,0.91396,9.65166,-0.4883,-0.6104,-1.1597,-1.4,-3.0,113.1,7428,4745,1071,30.11
209,2026-03-06T17:12:02.998000,17:12:02.998,0.40674,-0.9666,-9.74258,-1.4038,1.2207,-1.2207,-178.5,-3.1,113.7,0.40674,0.9666,9.74258,-1.4038,-1.2207,-1.2207,-1.5,-3.1,113.7,7212,4731,1015,30.04
210,2026-03-06T17:12:03.098000,17:12:03.098,0.50723,-1.03838,-9.82393,-1.5259,0.8545,-0.9155,-178.4,-3.2,114.4,0.50723,1.03838,9.82393,-1.5259,-0.8545,-0.9155,-1.6,-3.2,114.4,7025,4734,979,29.85
211,2026-03-06T17:12:03.198000,17:12:03.198,0.76084,-1.03838,-9.80957,-0.5493,-0.6104,-1.3428,-178.3,-3.2,115.0,0.76084,1.03838,9.80957,-0.5493,0.6104,-1.3428,-1.7,-3.2,115.0,6837,4763,1028,29.98
212,2026-03-06T17:12:03.297000,17:12:03.297,0.51201,-1.01445,-9.57031,-0.2441,0.0,-1.8921,-178.1,-3.2,115.7,0.51201,1.01445,9.57031,-0.2441,-0.0,-1.8921,-1.9,-3.2,115.7,6728,4781,999,30.11
213,2026-03-06T17:12:03.397000,17:12:03.397,0.55508,-1.21064,-9.99141,-1.2817,-0.3052,-1.2817,-177.9,-3.2,116.3,0.55508,1.21064,9.99141,-1.2817,0.3052,-1.2817,-2.1,-3.2,116.3,6654,4781,964,30.11
214,2026-03-06T17:12:03.497000,17:12:03.497,0.82783,-1.3542,-9.66602,-0.9766,-0.1831,-0.6714,-177.7,-3.1,116.9,0.82783,1.3542,9.66602,-0.9766,0.1831,-0.6714,-2.3,-3.1,116.9,6610,4747,1004,30.04
215,2026-03-06T17:12:03.597000,17:12:03.597,0.55029,-1.4834,-9.84785,-0.4883,0.3052,-1.0986,-177.5,-3.1,117.4,0.55029,1.4834,9.84785,-0.4883,-0.3052,-1.0986,-2.5,-3.1,117.4,6557,4687,1008,30.17
216,2026-03-06T17:12:03.697000,17:12:03.697,0.55029,-1.64131,-9.98662,-0.8545,0.1831,-1.2207,-177.2,-3.1,117.9,0.55029,1.64131,9.98662,-0.8545,-0.1831,-1.2207,-2.8,-3.1,117.9,6491,4583,1045,29.98
217,2026-03-06T17:12:03.797000,17:12:03.797,0.76084,-1.47383,-9.04873,-0.6714,0.6104,-0.6714,-176.9,-3.1,118.3,0.76084,1.47383,9.04873,-0.6714,-0.6104,-0.6714,-3.1,-3.1,118.3,6455,4497,1021,30.17
218,2026-03-06T17:12:03.896000,17:12:03.896,0.3541,-1.39248,-9.47461,-0.5493,-0.8545,-0.4883,-176.7,-3.0,118.6,0.3541,1.39248,9.47461,-0.5493,0.8545,-0.4883,-3.3,-3.0,118.6,6455,4432,975,30.04
219,2026-03-06T17:12:03.996000,17:12:03.996,0.38281,-1.30635,-9.77129,-0.4272,0.7324,-0.9155,-176.4,-3.0,118.9,0.38281,1.30635,9.77129,-0.4272,-0.7324,-0.9155,-3.6,-3.0,118.9,6474,4372,935,29.98
220,2026-03-06T17:12:04.096000,17:12:04.096,0.59336,-1.29199,-9.58945,0.0,1.0376,-0.5493,-176.2,-3.1,119.2,0.59336,1.29199,9.58945,0.0,-1.0376,-0.5493,-3.8,-3.1,119.2,6515,4338,874,30.17
221,2026-03-06T17:12:04.196000,17:12:04.196,0.78477,-1.48818,-9.93398,0.3052,0.0,-0.2441,-175.9,-3.1,119.4,0.78477,1.48818,9.93398,0.3052,-0.0,-0.2441,-4.1,-3.1,119.4,6565,4342,875,30.04
222,2026-03-06T17:12:04.296000,17:12:04.296,0.77998,-1.44512,-9.68516,-0.1221,-0.3662,-0.3662,-175.6,-3.1,119.6,0.77998,1.44512,9.68516,-0.1221,0.3662,-0.3662,-4.4,-3.1,119.6,6624,4358,877,29.98
223,2026-03-06T17:12:04.396000,17:12:04.396,0.50723,-1.41641,-9.61816,-0.1221,-0.3052,-0.8545,-175.4,-3.1,119.8,0.50723,1.41641,9.61816,-0.1221,0.3052,-0.8545,-4.6,-3.1,119.8,6604,4419,903,30.04
224,2026-03-06T17:12:04.496000,17:12:04.496,0.37803,-0.52637,-8.12998,1.77,0.9155,-0.4272,-175.2,-3.1,120.1,0.37803,0.52637,8.12998,1.77,-0.9155,-0.4272,-4.8,-3.1,120.1,6565,4484,968,30.11
225,2026-03-06T17:12:04.596000,17:12:04.596,1.59824,-1.11494,-9.69951,6.4697,-3.0518,1.0986,-174.6,-3.0,120.2,1.59824,1.11494,9.69951,6.4697,3.0518,1.0986,-5.4,-3.0,120.2,6526,4561,1023,30.17
226,2026-03-06T17:12:04.696000,17:12:04.696,0.65557,-1.65088,-10.6374,4.5166,-0.4272,0.2441,-173.9,-3.0,120.4,0.65557,1.65088,10.6374,4.5166,0.4272,0.2441,-6.1,-3.0,120.4,6471,4703,1050,30.04
227,2026-03-06T17:12:04.796000,17:12:04.796,0.55986,-1.50732,-10.69961,-0.061,-1.3428,-0.6104,-173.6,-3.1,120.7,0.55986,1.50732,10.69961,-0.061,1.3428,-0.6104,-6.4,-3.1,120.7,6447,4829,1123,29.98
228,2026-03-06T17:12:04.896000,17:12:04.896,0.66992,-1.34463,-9.29756,-0.3662,-1.1597,0.6104,-173.6,-3.0,121.0,0.66992,1.34463,9.29756,-0.3662,1.1597,0.6104,-6.4,-3.0,121.0,6436,4902,1226,29.98
229,2026-03-06T17:12:04.995000,17:12:04.995,0.46416,-1.23936,-9.34541,1.709,-1.0986,-0.061,-173.4,-2.9,121.3,0.46416,1.23936,9.34541,1.709,1.0986,-0.061,-6.6,-2.9,121.3,6472,4965,1360,29.85
230,2026-03-06T17:12:05.095000,17:12:05.095,0.55029,-1.46426,-9.78086,2.3193,-0.7324,-0.3052,-173.1,-2.8,121.5,0.55029,1.46426,9.78086,2.3193,0.7324,-0.3052,-6.9,-2.8,121.5,6533,5040,1485,29.98
231,2026-03-06T17:12:05.195000,17:12:05.195,0.5168,-1.48818,-9.75693,1.8921,-1.2817,0.4272,-172.8,-2.7,121.8,0.5168,1.48818,9.75693,1.8921,1.2817,0.4272,-7.2,-2.7,121.8,6565,5100,1584,30.04
232,2026-03-06T17:12:05.295000,17:12:05.295,0.579,-1.3542,-9.57031,1.709,-0.7935,0.3662,-172.6,-2.7,122.0,0.579,1.3542,9.57031,1.709,0.7935,0.3662,-7.4,-2.7,122.0,6628,5157,1598,30.04
233,2026-03-06T17:12:05.395000,17:12:05.395,0.61729,-1.41641,-9.56553,1.4648,-0.6714,-0.1831,-172.4,-2.7,122.2,0.61729,1.41641,9.56553,1.4648,0.6714,-0.1831,-7.6,-2.7,122.2,6663,5210,1562,30.11
234,2026-03-06T17:12:05.495000,17:12:05.495,0.62207,-1.4834,-9.72822,1.0986,-0.3052,0.1221,-172.2,-2.7,122.4,0.62207,1.4834,9.72822,1.0986,0.3052,0.1221,-7.8,-2.7,122.4,6694,5263,1531,29.98
235,2026-03-06T17:12:05.594000,17:12:05.594,0.49287,-1.76572,-9.71387,1.0376,-0.9155,0.3662,-172.0,-2.6,122.6,0.49287,1.76572,9.71387,1.0376,0.9155,0.3662,-8.0,-2.6,122.6,6741,5324,1524,30.11
236,2026-03-06T17:12:05.694000,17:12:05.694,0.41631,-1.94277,-9.55596,1.2817,-0.4272,-0.1221,-171.8,-2.6,122.8,0.41631,1.94277,9.55596,1.2817,0.4272,-0.1221,-8.2,-2.6,122.8,6801,5350,1515,30.04
237,2026-03-06T17:12:05.794000,17:12:05.794,0.49766,-1.99541,-9.41719,0.9155,-0.2441,-0.2441,-171.5,-2.6,123.0,0.49766,1.99541,9.41719,0.9155,0.2441,-0.2441,-8.5,-2.6,123.0,6836,5383,1537,30.11
238,2026-03-06T17:12:05.894000,17:12:05.894,0.58379,-2.0624,-9.7665,0.4272,-0.1221,0.1831,-171.3,-2.6,123.1,0.58379,2.0624,9.7665,0.4272,0.1221,0.1831,-8.7,-2.6,123.1,6876,5405,1594,29.98
239,2026-03-06T17:12:05.994000,17:12:05.994,0.60293,-2.20596,-9.70908,0.6104,-0.4272,-0.061,-171.1,-2.5,123.2,0.60293,2.20596,9.70908,0.6104,0.4272,-0.061,-8.9,-2.5,123.2,6889,5387,1632,30.04
240,2026-03-06T17:12:06.094000,17:12:06.094,0.67949,-1.40205,-9.58945,0.2441,-0.1831,-0.3662,-170.8,-2.5,123.4,0.67949,1.40205,9.58945,0.2441,0.1831,-0.3662,-9.2,-2.5,123.4,6935,5427,1601,30.23
241,2026-03-06T17:12:06.194000,17:12:06.194,0.50244,-1.10537,-9.44111,0.5493,-0.7324,-0.6104,-170.8,-2.5,123.6,0.50244,1.10537,9.44111,0.5493,0.7324,-0.6104,-9.2,-2.5,123.6,6940,5413,1575,30.17
242,2026-03-06T17:12:06.293000,17:12:06.293,0.6125,-1.18193,-9.57031,0.4272,0.1831,-0.6104,-170.9,-2.6,123.8,0.6125,1.18193,9.57031,0.4272,-0.1831,-0.6104,-9.1,-2.6,123.8,6947,5437,1533,30.04
243,2026-03-06T17:12:06.393000,17:12:06.393,0.65078,-1.34463,-9.67559,0.5493,-0.2441,-1.5259,-170.9,-2.6,124.0,0.65078,1.34463,9.67559,0.5493,0.2441,-1.5259,-9.1,-2.6,124.0,6983,5414,1555,30.17
244,2026-03-06T17:12:06.493000,17:12:06.493,0.74648,-1.38291,-9.62295,0.6714,-0.6104,-2.1973,-170.9,-2.8,124.3,0.74648,1.38291,9.62295,0.6714,0.6104,-2.1973,-9.1,-2.8,124.3,7026,5388,1517,30.11
245,2026-03-06T17:12:06.593000,17:12:06.593,1.20586,-1.12451,-9.42676,-0.3052,-0.1221,-2.8076,-171.0,-2.9,124.6,1.20586,1.12451,9.42676,-0.3052,0.1221,-2.8076,-9.0,-2.9,124.6,6981,5427,1646,30.04
246,2026-03-06T17:12:06.693000,17:12:06.693,0.65078,0.61729,-8.94824,-2.5024,2.6855,-5.127,-171.4,-3.2,125.0,0.65078,-0.61729,8.94824,-2.5024,-2.6855,-5.127,-8.6,-3.2,125.0,7038,5407,1595,30.11
247,2026-03-06T17:12:06.793000,17:12:06.793,2.22988,0.71299,-9.70908,-6.0425,-0.4883,-4.6997,-172.4,-3.6,125.6,2.22988,-0.71299,9.70908,-6.0425,0.4883,-4.6997,-7.6,-3.6,125.6,7005,5372,1608,30.11
248,2026-03-06T17:12:06.892000,17:12:06.892,2.16768,0.48809,-10.78574,-1.709,-1.77,-7.5684,-173.4,-3.9,126.3,2.16768,-0.48809,10.78574,-1.709,1.77,-7.5684,-6.6,-3.9,126.3,7003,5330,1568,30.23
249,2026-03-06T17:12:06.991000,17:12:06.991,1.4834,0.55986,-10.40771,1.6479,-3.2349,-10.5591,-173.9,-4.1,127.2,1.4834,-0.55986,10.40771,1.6479,3.2349,-10.5591,-6.1,-4.1,127.2,6995,5287,1508,30.23
250,2026-03-06T17:12:07.091000,17:12:07.091,1.51211,0.99531,-9.13965,1.5259,2.7466,-12.5732,-174.4,-4.4,128.3,1.51211,-0.99531,9.13965,1.5259,-2.7466,-12.5732,-5.6,-4.4,128.3,6973,5263,1446,30.17
251,2026-03-06T17:12:07.191000,17:12:07.191,2.07197,1.225,-8.93867,0.4883,-0.1831,-14.4043,-175.0,-4.9,129.5,2.07197,-1.225,8.93867,0.4883,0.1831,-14.4043,-5.0,-4.9,129.5,6916,5249,1418,30.23
252,2026-03-06T17:12:07.291000,17:12:07.291,2.41172,-0.05742,-10.73311,-1.2207,-5.5542,-16.8457,-175.7,-5.2,130.8,2.41172,0.05742,10.73311,-1.2207,5.5542,-16.8457,-4.3,-5.2,130.8,6900,5195,1399,30.23
253,2026-03-06T17:12:07.391000,17:12:07.391,2.45,-1.08623,-10.30723,-2.6245,-9.5215,-17.7612,-176.4,-4.9,132.3,2.45,1.08623,10.30723,-2.6245,9.5215,-17.7612,-3.6,-4.9,132.3,6880,5109,1398,30.23
254,2026-03-06T17:12:07.491000,17:12:07.491,-0.03828,0.71777,-9.68994,-3.418,1.3428,-19.5312,-177.0,-5.2,133.8,-0.03828,-0.71777,9.68994,-3.418,-1.3428,-19.5312,-3.0,-5.2,133.8,6867,5039,1471,30.17
255,2026-03-06T17:12:07.590000,17:12:07.590,2.54092,1.10537,-9.21143,-2.5635,-0.4883,-19.5312,-177.8,-5.2,135.2,2.54092,-1.10537,9.21143,-2.5635,0.4883,-19.5312,-2.2,-5.2,135.2,6735,4964,1567,30.23
256,2026-03-06T17:12:07.690000,17:12:07.690,2.0624,0.31104,-10.16846,-3.2349,2.8687,-21.9116,-178.6,-5.9,136.7,2.0624,-0.31104,10.16846,-3.2349,-2.8687,-21.9116,-1.4,-5.9,136.7,6630,4801,1685,30.11
257,2026-03-06T17:12:07.790000,17:12:07.790,2.66533,0.04785,-9.29756,-2.6855,-2.9297,-21.9727,-179.4,-6.0,138.2,2.66533,-0.04785,9.29756,-2.6855,2.9297,-21.9727,-0.6,-6.0,138.2,6556,4611,1694,30.17
258,2026-03-06T17:12:07.890000,17:12:07.890,2.04326,0.55029,-9.79043,-3.2959,-0.9766,-22.2778,179.9,-6.2,139.5,2.04326,-0.55029,9.79043,-3.2959,0.9766,-22.2778,-359.9,-6.2,139.5,6554,4439,1627,30.17
259,2026-03-06T17:12:07.990000,17:12:07.990,2.30166,1.0001,-9.91006,-3.1128,-2.4414,-23.3765,179.2,-6.3,140.8,2.30166,-1.0001,9.91006,-3.1128,2.4414,-23.3765,-359.2,-6.3,140.8,6567,4271,1584,30.11
260,2026-03-06T17:12:08.090000,17:12:08.090,2.03848,0.31104,-9.40762,-3.479,0.2441,-23.1934,178.4,-6.4,142.0,2.03848,-0.31104,9.40762,-3.479,-0.2441,-23.1934,-358.4,-6.4,142.0,6539,4115,1616,30.04
261,2026-03-06T17:12:08.189000,17:12:08.189,2.67969,0.78477,-10.9293,-3.3569,-0.5493,-23.5596,177.6,-6.7,143.1,2.67969,-0.78477,10.9293,-3.3569,0.5493,-23.5596,-357.6,-6.7,143.1,6497,3942,1659,30.11
262,2026-03-06T17:12:08.289000,17:12:08.289,2.87109,0.30146,-9.0583,0.4272,-6.6528,-23.8037,177.1,-6.5,144.0,2.87109,-0.30146,9.0583,0.4272,6.6528,-23.8037,-357.1,-6.5,144.0,6510,3770,1709,30.11
263,2026-03-06T17:12:08.389000,17:12:08.389,2.05283,0.63164,-9.03438,-0.9766,-9.3384,-25.5737,176.7,-6.3,145.0,2.05283,-0.63164,9.03438,-0.9766,9.3384,-25.5737,-356.7,-6.3,145.0,6592,3598,1774,30.29
264,2026-03-06T17:12:08.489000,17:12:08.489,1.58389,0.49766,-10.11104,3.1738,-1.77,-25.6348,176.4,-6.2,145.9,1.58389,-0.49766,10.11104,3.1738,1.77,-25.6348,-356.4,-6.2,145.9,6651,3417,1814,30.23
265,2026-03-06T17:12:08.589000,17:12:08.589,1.38291,-0.33496,-9.99141,4.0283,-1.6479,-26.062,176.5,-6.2,146.6,1.38291,0.33496,9.99141,4.0283,1.6479,-26.062,-356.5,-6.2,146.6,6617,3262,1811,30.11
266,2026-03-06T17:12:08.688000,17:12:08.688,1.70352,0.60293,-9.5751,2.6245,-1.9531,-23.6816,176.5,-6.4,147.3,1.70352,-0.60293,9.5751,2.6245,1.9531,-23.6816,-356.5,-6.4,147.3,6529,3122,1771,30.17
267,2026-03-06T17:12:08.792000,17:12:08.792,2.23467,0.89482,-9.41719,1.77,-1.2817,-21.7285,176.4,-6.3,147.6,2.23467,-0.89482,9.41719,1.77,1.2817,-21.7285,-356.4,-6.3,147.6,6369,2954,2048,30.23
268,2026-03-06T17:12:08.888000,17:12:08.888,2.40215,1.19629,-10.11582,2.4414,-2.9907,-21.7285,176.2,-6.4,147.9,2.40215,-1.19629,10.11582,2.4414,2.9907,-21.7285,-356.2,-6.4,147.9,6371,2769,2043,30.17
269,2026-03-06T17:12:08.989000,17:12:08.989,1.97148,1.00967,-9.98662,2.8687,0.2441,-21.9116,176.0,-6.4,148.0,1.97148,-1.00967,9.98662,2.8687,-0.2441,-21.9116,-356.0,-6.4,148.0,6452,2688,1902,30.17
270,2026-03-06T17:12:09.088000,17:12:09.088,1.12451,0.72734,-9.69473,2.9297,-0.9155,-19.2871,175.9,-6.7,148.0,1.12451,-0.72734,9.69473,2.9297,0.9155,-19.2871,-355.9,-6.7,148.0,6462,2579,1845,30.04
271,2026-03-06T17:12:09.188000,17:12:09.188,2.52178,1.26807,-10.1541,-0.1831,-1.8921,-18.8599,175.5,-6.7,147.8,2.52178,-1.26807,10.1541,-0.1831,1.8921,-18.8599,-355.5,-6.7,147.8,6525,2495,1802,30.23
272,2026-03-06T17:12:09.288000,17:12:09.288,2.08154,1.41162,-9.3502,-1.2207,-2.9907,-18.4326,174.9,-6.7,147.5,2.08154,-1.41162,9.3502,-1.2207,2.9907,-18.4326,-354.9,-6.7,147.5,6615,2441,1813,30.17
273,2026-03-06T17:12:09.388000,17:12:09.388,2.59834,1.52168,-9.46982,0.6104,-0.4272,-17.1509,174.5,-6.6,147.2,2.59834,-1.52168,9.46982,0.6104,0.4272,-17.1509,-354.5,-6.6,147.2,6655,2285,1789,30.04
274,2026-03-06T17:12:09.488000,17:12:09.488,2.62705,1.33984,-10.10146,3.1738,-1.5869,-17.395,174.2,-6.6,146.7,2.62705,-1.33984,10.10146,3.1738,1.5869,-17.395,-354.2,-6.6,146.7,6710,2199,1667,30.04
275,2026-03-06T17:12:09.588000,17:12:09.588,2.36387,1.06709,-10.51777,2.6245,2.3804,-19.2871,174.0,-6.9,146.4,2.36387,-1.06709,10.51777,2.6245,-2.3804,-19.2871,-354.0,-6.9,146.4,6885,2370,1791,30.23
276,2026-03-06T17:12:09.688000,17:12:09.688,1.75137,1.61738,-9.5416,4.1504,0.1221,-20.1416,173.9,-7.4,146.2,1.75137,-1.61738,9.5416,4.1504,-0.1221,-20.1416,-353.9,-7.4,146.2,7054,2153,1590,30.29
277,2026-03-06T17:12:09.787000,17:12:09.787,2.52656,0.3541,-8.75205,2.0142,-5.188,-20.5688,173.5,-7.9,145.8,2.52656,-0.3541,8.75205,2.0142,5.188,-20.5688,-353.5,-7.9,145.8,7324,2226,1563,30.23
278,2026-03-06T17:12:09.887000,17:12:09.887,3.68457,0.31582,-8.23525,-6.7749,8.667,-14.2212,172.9,-8.3,145.5,3.68457,-0.31582,8.23525,-6.7749,-8.667,-14.2212,-352.9,-8.3,145.5,7801,2435,1855,30.23
279,2026-03-06T17:12:09.986000,17:12:09.986,2.76104,1.804,-8.86689,-0.061,0.7324,-21.3623,172.2,-8.8,145.4,2.76104,-1.804,8.86689,-0.061,-0.7324,-21.3623,-352.2,-8.8,145.4,8465,2449,3050,30.17
280,2026-03-06T17:12:10.086000,17:12:10.086,3.92861,1.49775,-10.25459,3.7842,1.3428,-21.3623,171.8,-9.2,145.3,3.92861,-1.49775,10.25459,3.7842,-1.3428,-21.3623,-351.8,-9.2,145.3,9276,1351,4293,30.11
281,2026-03-06T17:12:10.186000,17:12:10.186,4.14873,1.15322,-9.8335,5.3711,-1.0376,-20.5688,171.8,-9.6,144.8,4.14873,-1.15322,9.8335,5.3711,1.0376,-20.5688,-351.8,-9.6,144.8,10711,510,4153,30.23
282,2026-03-06T17:12:10.286000,17:12:10.286,1.13887,0.34453,-8.90039,9.7656,-13.5498,-23.4375,171.8,-9.7,144.4,1.13887,-0.34453,8.90039,9.7656,13.5498,-23.4375,-351.8,-9.7,144.4,12316,-57,3216,30.11
283,2026-03-06T17:12:10.386000,17:12:10.386,3.89512,1.84707,-9.16357,5.6763,0.6714,-23.0713,171.8,-10.2,144.4,3.89512,-1.84707,9.16357,5.6763,-0.6714,-23.0713,-351.8,-10.2,144.4,12850,-81,1905,30.23
284,2026-03-06T17:12:10.486000,17:12:10.486,4.6751,1.15801,-9.28799,2.1973,2.8687,-23.0103,171.6,-10.7,144.5,4.6751,-1.15801,9.28799,2.1973,-2.8687,-23.0103,-351.6,-10.7,144.5,13037,54,655,30.23
285,2026-03-06T17:12:10.585000,17:12:10.585,4.46934,1.39727,-10.08711,2.6245,-3.418,-21.0571,171.2,-11.0,144.6,4.46934,-1.39727,10.08711,2.6245,3.418,-21.0571,-351.2,-11.0,144.6,12540,634,8,30.17
286,2026-03-06T17:12:10.685000,17:12:10.685,3.97646,1.84707,-9.97705,0.6104,1.2817,-19.5923,170.8,-11.3,144.7,3.97646,-1.84707,9.97705,0.6104,-1.2817,-19.5923,-350.8,-11.3,144.7,11941,200,-386,30.29
287,2026-03-06T17:12:10.785000,17:12:10.785,4.2875,1.8375,-8.63721,0.4883,-3.6011,-16.2354,170.4,-11.3,144.7,4.2875,-1.8375,8.63721,0.4883,3.6011,-16.2354,-350.4,-11.3,144.7,11252,651,-1143,30.29
288,2026-03-06T17:12:10.885000,17:12:10.885,2.90938,1.68916,-9.50332,1.8921,-3.3569,-15.0757,170.2,-11.3,144.6,2.90938,-1.68916,9.50332,1.8921,3.3569,-15.0757,-350.2,-11.3,144.6,10556,856,-1291,30.23
289,2026-03-06T17:12:10.984000,17:12:10.984,2.0002,1.14844,-9.99619,3.8452,-3.6621,-13.3667,170.1,-11.2,144.4,2.0002,-1.14844,9.99619,3.8452,3.6621,-13.3667,-350.1,-11.2,144.4,10205,1481,-1128,30.23
290,2026-03-06T17:12:11.084000,17:12:11.084,1.20586,1.3542,-10.2498,1.8921,-0.1221,-9.1553,170.2,-11.0,142.8,1.20586,-1.3542,10.2498,1.8921,0.1221,-9.1553,-350.2,-11.0,142.8,9758,1173,-648,30.23
291,2026-03-06T17:12:11.184000,17:12:11.184,1.68916,1.66523,-9.50811,1.8311,-1.4648,-4.7607,170.3,-10.8,140.8,1.68916,-1.66523,9.50811,1.8311,1.4648,-4.7607,-350.3,-10.8,140.8,9574,1297,-705,30.11
292,2026-03-06T17:12:11.284000,17:12:11.284,1.97148,1.55996,-10.2498,-1.8311,-2.8687,-2.3804,170.3,-10.4,138.6,1.97148,-1.55996,10.2498,-1.8311,2.8687,-2.3804,-350.3,-10.4,138.6,9657,864,-935,30.17
293,2026-03-06T17:12:11.384000,17:12:11.384,1.0001,0.37324,-9.75693,1.1597,-1.5259,-1.3428,170.3,-10.2,136.4,1.0001,-0.37324,9.75693,1.1597,1.5259,-1.3428,-350.3,-10.2,136.4,9708,1497,-1084,30.17
294,2026-03-06T17:12:11.484000,17:12:11.484,0.71777,-1.06709,-9.70908,1.9531,1.77,-0.8545,170.9,-10.2,134.3,0.71777,1.06709,9.70908,1.9531,-1.77,-0.8545,-350.9,-10.2,134.3,9916,1327,-850,30.23
295,2026-03-06T17:12:11.583000,17:12:11.583,1.03838,-0.74648,-9.04395,3.6621,-3.1738,0.2441,171.9,-10.1,132.2,1.03838,0.74648,9.04395,3.6621,3.1738,0.2441,-351.9,-10.1,132.2,10018,1317,-304,30.17
296,2026-03-06T17:12:11.683000,17:12:11.683,0.59336,-1.18672,-9.76172,1.0376,-0.6714,-0.3052,172.9,-9.9,130.2,0.59336,1.18672,9.76172,1.0376,0.6714,-0.3052,-352.9,-9.9,130.2,10035,999,-839,30.23
297,2026-03-06T17:12:11.783000,17:12:11.783,0.93311,-1.11016,-9.08223,-0.1221,2.3193,-1.77,173.8,-9.9,128.3,0.93311,1.11016,9.08223,-0.1221,-2.3193,-1.77,-353.8,-9.9,128.3,9837,1409,-649,30.23
298,2026-03-06T17:12:11.883000,17:12:11.883,1.06709,-1.0001,-9.88613,-0.3662,0.6714,0.1221,174.5,-9.8,126.7,1.06709,1.0001,9.88613,-0.3662,-0.6714,0.1221,-354.5,-9.8,126.7,9962,1720,-836,30.17
299,2026-03-06T17:12:11.983000,17:12:11.983,0.9666,-1.11973,-10.62305,-1.3428,0.4883,0.1221,175.1,-9.8,125.1,0.9666,1.11973,10.62305,-1.3428,-0.4883,0.1221,-355.1,-9.8,125.1,9924,1801,-513,30.29
300,2026-03-06T17:12:12.082000,17:12:12.082,1.55039,-0.66514,-9.59424,-3.1128,-1.709,-0.3052,175.5,-9.6,123.8,1.55039,0.66514,9.59424,-3.1128,1.709,-0.3052,-355.5,-9.6,123.8,9628,2365,-302,30.23
301,2026-03-06T17:12:12.182000,17:12:12.182,0.8709,-1.12451,-9.3502,-0.3052,-0.4883,-0.1221,176.0,-9.5,122.6,0.8709,1.12451,9.3502,-0.3052,0.4883,-0.1221,-356.0,-9.5,122.6,9771,1914,290,30.17
302,2026-03-06T17:12:12.282000,17:12:12.282,1.39248,-1.14365,-10.00576,3.1738,-2.1973,0.3662,176.8,-9.3,121.3,1.39248,1.14365,10.00576,3.1738,2.1973,0.3662,-356.8,-9.3,121.3,9975,2092,537,30.29
303,2026-03-06T17:12:12.382000,17:12:12.382,0.9666,-0.10527,-8.93389,0.5493,-0.9766,0.0,177.6,-8.9,120.0,0.9666,0.10527,8.93389,0.5493,0.9766,0.0,-357.6,-8.9,120.0,10004,1351,501,30.17
304,2026-03-06T17:12:12.482000,17:12:12.482,0.26797,-0.41631,-9.97227,-0.6104,0.6714,-0.4272,178.0,-8.9,118.7,0.26797,0.41631,9.97227,-0.6104,-0.6714,-0.4272,-358.0,-8.9,118.7,9518,1549,1047,30.23
305,2026-03-06T17:12:12.582000,17:12:12.582,0.68428,-2.94766,-9.27363,2.0752,3.6621,-0.5493,178.4,-8.8,117.6,0.68428,2.94766,9.27363,2.0752,-3.6621,-0.5493,-358.4,-8.8,117.6,9620,1818,193,30.23
306,2026-03-06T17:12:12.682000,17:12:12.682,2.38301,-1.68916,-9.33584,2.3804,2.0142,0.3662,179.5,-8.4,116.7,2.38301,1.68916,9.33584,2.3804,-2.0142,0.3662,-359.5,-8.4,116.7,9498,2980,1303,30.29
307,2026-03-06T17:12:12.782000,17:12:12.782,1.52168,-1.65566,-10.50342,0.5493,-2.3193,-0.2441,-179.7,-8.1,115.9,1.52168,1.65566,10.50342,0.5493,2.3193,-0.2441,-0.3,-8.1,115.9,9955,1916,3735,30.42
